Name,Latitude,Longitude
Warehouse,12.9716,77.5946
Customer A,12.9750,77.6000
Customer B,12.9792,77.6085
Customer C,12.9655,77.6201
Customer D,12.9585,77.6124
Customer E,12.9684,77.6305
Customer F,12.9825,77.6268